[{"name": "\u533a\u884c\u653f\u670d\u52a1\u4e2d\u5fc3\uff08\u4e1c\u3001\u897f\u5ea7\uff09\u670d\u52a1\u5927\u5385\uff08W-FoShan.SD\uff09", "district": "\u5927\u826f", "number": "25", "longitude": "113.3041030000", "latitude": "22.8104040000", "id": "528300002001"}, {"name": "\u534e\u6842\u56ed\uff08W-FoShan.SD\uff09", "district": "\u5927\u826f", "number": "34", "longitude": "113.2944310000", "latitude": "22.8209980000", "id": "528300002002"}, {"name": "\u533a\u5730\u7a0e\u5c40-\u5927\u826f\u8857\u9053\u5206\u5c40\u670d\u52a1\u5927\u5385\uff08W-FoShan.SD\uff09", "district": "\u5927\u826f", "number": "3", "longitude": "113.2674520000", "latitude": "22.8346880000", "id": "528300002003"}, {"name": "\u533a\u5730\u7a0e\u5c40-\u5bb9\u6842\u8857\u9053\u5206\u5c40\u670d\u52a1\u5927\u5385\uff08W-FoShan.SD\uff09", "district": "\u5927\u826f", "number": "4", "longitude": "113.2763250000", "latitude": "22.7630650000", "id": "528300002004"}, {"name": "\u533a\u5730\u7a0e\u5c40-\u4f26\u6559\u8857\u9053\u5206\u5c40\u670d\u52a1\u5927\u5385\uff08W-FoShan.SD\uff09", "district": "\u4f26\u6559", "number": "4", "longitude": "113.2260170000", "latitude": "22.8773150000", "id": "528308002005"}, {"name": "\u533a\u5730\u7a0e\u5c40-\u52d2\u6d41\u8857\u9053\u5206\u5c40\u670d\u52a1\u5927\u5385\uff08W-FoShan.SD\uff09", "district": "\u5927\u826f", "number": "4", "longitude": "113.1372580000", "latitude": "22.8607570000", "id": "528300002006"}, {"name": "\u533a\u5730\u7a0e\u5c40-\u4e50\u4ece\u9547\u5206\u5c40\u670d\u52a1\u5927\u5385\uff08W-FoShan.SD\uff09", "district": "\u4e50\u4ece", "number": "4", "longitude": "113.0987010000", "latitude": "22.9701330000", "id": "528315002007"}, {"name": "\u533a\u5730\u7a0e\u5c40-\u9648\u6751\u9547\u5206\u5c40\u670d\u52a1\u5927\u5385\uff08W-FoShan.SD\uff09", "district": "\u9648\u6751", "number": "4", "longitude": "113.2461750000", "latitude": "22.9603250000", "id": "528313002008"}, {"name": "\u533a\u5730\u7a0e\u5c40-\u5317\u6ed8\u9547\u5206\u5c40\u670d\u52a1\u5927\u5385\uff08W-FoShan.SD\uff09", "district": "\u5317\u6ed8", "number": "4", "longitude": "113.2171890000", "latitude": "22.9246810000", "id": "528312002009"}, {"name": "\u533a\u5730\u7a0e\u5c40-\u9f99\u6c5f\u9547\u5206\u5c40\u670d\u52a1\u5927\u5385\uff08W-FoShan.SD\uff09", "district": "\u5927\u826f", "number": "4", "longitude": "113.0811370000", "latitude": "22.8918900000", "id": "528300002010"}, {"name": "\u533a\u5730\u7a0e\u5c40-\u5747\u5b89\u9547\u5206\u5c40\u670d\u52a1\u5927\u5385\uff08W-FoShan.SD\uff09", "district": "\u5927\u826f", "number": "4", "longitude": "113.1551620000", "latitude": "22.7230770000", "id": "528300002011"}, {"name": "\u533a\u5730\u7a0e\u5c40-\u674f\u575b\u9547\u5206\u5c40\u670d\u52a1\u5927\u5385\uff08W-FoShan.SD\uff09", "district": "\u5927\u826f", "number": "4", "longitude": "113.1615740000", "latitude": "22.7955790000", "id": "528300002012"}, {"name": "\u533a\u793e\u4fdd\u5c40-\u5927\u826f\u8857\u9053\u5206\u5c40\u670d\u52a1\u5927\u5385\uff08W-FoShan.SD\uff09", "district": "\u5927\u826f", "number": "2", "longitude": "113.2637910000", "latitude": "22.8472280000", "id": "528300002013"}, {"name": "\u533a\u793e\u4fdd\u5c40-\u5bb9\u6842\u8857\u9053\u5206\u5c40\u670d\u52a1\u5927\u5385\uff08W-FoShan.SD\uff09", "district": "\u5927\u826f", "number": "2", "longitude": "113.2881030000", "latitude": "22.7713800000", "id": "528300002014"}, {"name": "\u533a\u793e\u4fdd\u5c40-\u4f26\u6559\u8857\u9053\u5206\u5c40\u670d\u52a1\u5927\u5385\uff08W-FoShan.SD\uff09", "district": "\u4f26\u6559", "number": "2", "longitude": "113.2185370000", "latitude": "22.8752510000", "id": "528308002015"}, {"name": "\u533a\u793e\u4fdd\u5c40-\u52d2\u6d41\u8857\u9053\u5206\u5c40\u670d\u52a1\u5927\u5385\uff08W-FoShan.SD\uff09", "district": "\u5927\u826f", "number": "2", "longitude": "113.2185370000", "latitude": "22.8752510000", "id": "528300002016"}, {"name": "\u533a\u793e\u4fdd\u5c40-\u4e50\u4ece\u9547\u5206\u5c40\u670d\u52a1\u5927\u5385\uff08W-FoShan.SD\uff09", "district": "\u4e50\u4ece", "number": "1", "longitude": "113.0979210000", "latitude": "22.9587190000", "id": "528315002017"}, {"name": "\u533a\u793e\u4fdd\u5c40-\u9648\u6751\u9547\u5206\u5c40\u670d\u52a1\u5927\u5385\uff08W-FoShan.SD\uff09", "district": "\u9648\u6751", "number": "1", "longitude": "113.2454170000", "latitude": "22.9621470000", "id": "528313002018"}, {"name": "\u533a\u793e\u4fdd\u5c40-\u5317\u6ed8\u9547\u5206\u5c40\u670d\u52a1\u5927\u5385\uff08W-FoShan.SD\uff09", "district": "\u5317\u6ed8", "number": "1", "longitude": "113.2242350000", "latitude": "22.9116570000", "id": "528312002019"}, {"name": "\u533a\u793e\u4fdd\u5c40-\u9f99\u6c5f\u9547\u5206\u5c40\u670d\u52a1\u5927\u5385\uff08W-FoShan.SD\uff09", "district": "\u5927\u826f", "number": "1", "longitude": "113.0774840000", "latitude": "22.8942380000", "id": "528300002020"}, {"name": "\u533a\u793e\u4fdd\u5c40-\u5747\u5b89\u9547\u5206\u5c40\u670d\u52a1\u5927\u5385\uff08W-FoShan.SD\uff09", "district": "\u5927\u826f", "number": "1", "longitude": "113.1563890000", "latitude": "22.7240270000", "id": "528300002021"}, {"name": "\u533a\u793e\u4fdd\u5c40-\u674f\u575b\u9547\u5206\u5c40\u670d\u52a1\u5927\u5385\uff08W-FoShan.SD\uff09", "district": "\u5927\u826f", "number": "1", "longitude": "113.1659770000", "latitude": "22.7906640000", "id": "528300002022"}, {"name": "\u987a\u5fb7\u533a\u7b2c\u4e00\u4eba\u6c11\u533b\u9662\uff08W-FoShan.SD\uff09", "district": "\u5927\u826f", "number": "65", "longitude": "113.2568530000", "latitude": "22.8498840000", "id": "528300002023"}, {"name": "\u987a\u5fb7\u533a\u4e2d\u533b\u9662\uff08W-FoShan.SD\uff09", "district": "\u5927\u826f", "number": "7", "longitude": "113.2736570000", "latitude": "22.8078060000", "id": "528300002024"}, {"name": "\u987a\u5fb7\u533a\u5987\u5e7c\u4fdd\u5065\u9662\uff08W-FoShan.SD\uff09", "district": "\u5927\u826f", "number": "16", "longitude": "113.2656370000", "latitude": "22.8375610000", "id": "528300002025"}, {"name": "\u987a\u5fb7\u533a\u4f0d\u4ef2\u4f69\u7eaa\u5ff5\u533b\u9662\uff08W-FoShan.SD\uff09", "district": "\u5927\u826f", "number": "2", "longitude": "113.2797650000", "latitude": "22.8177920000", "id": "528300002026"}, {"name": "\u987a\u5fb7\u533a\u6162\u6027\u75c5\u9632\u6cbb\u4e2d\u5fc3\uff08W-FoShan.SD\uff09", "district": "\u5927\u826f", "number": "4", "longitude": "113.2497330000", "latitude": "22.8387430000", "id": "528300002027"}, {"name": "\u987a\u5fb7\u6e2f\u670d\u52a1\u5927\u5385\uff089C.W-FoShan.SD\uff09", "district": "\u5927\u826f", "number": "3", "longitude": "113.2700470000", "latitude": "22.8540800000", "id": "528300002028"}, {"name": "\u987a\u5fb7\u56fe\u4e66\u9986\uff08W-FoShan.SD\uff09", "district": "\u5927\u826f", "number": "75", "longitude": "113.3014920000", "latitude": "22.8064900000", "id": "528300002029"}, {"name": "\u987a\u5fb7\u535a\u7269\u9986\uff08W-FoShan.SD\uff09", "district": "\u5927\u826f", "number": "27", "longitude": "113.3023350000", "latitude": "22.8065980000", "id": "528300002030"}, {"name": "\u5fb7\u80dc\u6587\u5316\u5e7f\u573a\uff08W-FoShan.SD\uff09", "district": "\u5927\u826f", "number": "24", "longitude": "113.3011240000", "latitude": "22.8096880000", "id": "528300002031"}, {"name": "\u4e50\u4ece\u9547\u884c\u653f\u670d\u52a1\u4e2d\u5fc3\u670d\u52a1\u5927\u5385\uff08W-FoShan.SD\uff09", "district": "\u4e50\u4ece", "number": "20", "longitude": "113.0979210000", "latitude": "22.9587190000", "id": "528315002033"}, {"name": "\u533a\u5e02\u573a\u5b89\u5168\u76d1\u7ba1\u5c40\u4e50\u4ece\u5206\u5c40\u670d\u52a1\u5927\u5385\uff08W-FoShan.SD\uff09", "district": "\u4e50\u4ece", "number": "6", "longitude": "113.1022320000", "latitude": "22.9634610000", "id": "528315002034"}, {"name": "\u4e50\u4ece\u6587\u5316\u516c\u56ed\uff08W-FoShan.SD\uff09", "district": "\u4e50\u4ece", "number": "4", "longitude": "113.1042080000", "latitude": "22.9557910000", "id": "528315002035"}, {"name": "\u4e50\u4ece\u533b\u9662\uff08Lecong-Free\uff09", "district": "\u4e50\u4ece", "number": "59", "longitude": "113.0900520000", "latitude": "22.9587360000", "id": "528315002036"}, {"name": "\u4e50\u4ece\u4ea4\u901a\u4e2d\u5fc3\uff08Lecong-Free\uff09", "district": "\u4e50\u4ece", "number": "10", "longitude": "113.0982540000", "latitude": "22.9635110000", "id": "528315002037"}, {"name": "\u4e50\u4ece\u4eba\u6c11\u653f\u5e9c\uff08W-FoShan.SD\uff09", "district": "\u4e50\u4ece", "number": "32", "longitude": "113.0958010000", "latitude": "22.9642100000", "id": "528315002038"}, {"name": "\u4e50\u4ece\u56fd\u571f\u57ce\u5efa\u548c\u6c34\u5229\u5c40\uff08W-FoShan.SD\uff09", "district": "\u4e50\u4ece", "number": "6", "longitude": "113.1038730000", "latitude": "22.9801640000", "id": "528315002039"}, {"name": "\u533a\u5e02\u573a\u5b89\u5168\u76d1\u7ba1\u5c40\u4e50\u4ece\u5206\u5c40\uff08\u9a7b\u5bb6\u5177\u57ce\u76d1\u7ba1\u5904\uff09\uff08Lecong-Free\uff09", "district": "\u4e50\u4ece", "number": "9", "longitude": "113.1022320000", "latitude": "22.9634610000", "id": "528315002040"}, {"name": "\u533a\u73af\u5883\u8fd0\u8f93\u548c\u57ce\u5e02\u7ba1\u7406\u5c40\u4e50\u4ece\u5206\u5c40\uff08Lecong-Free\uff09", "district": "\u4e50\u4ece", "number": "6", "longitude": "113.1005530000", "latitude": "22.9634940000", "id": "528315002041"}, {"name": "\u7efc\u6cbb\u4fe1\u8bbf\u7ef4\u7a33\u529e\u516c\u5ba4\uff08Lecong-Free\uff09", "district": "\u4e50\u4ece", "number": "6", "longitude": "113.1870300000", "latitude": "22.8485100000", "id": "528315002042"}, {"name": "\u6d41\u52a8\u4eba\u53e3\u548c\u51fa\u79df\u5c4b\u7ba1\u7406\u4e2d\u5fc3\uff08Lecong-Free\uff09", "district": "\u4e50\u4ece", "number": "6", "longitude": "113.2655480000", "latitude": "22.7692220000", "id": "528315002043"}, {"name": "\u6570\u5b57\u57ce\u7ba1\uff08Lecong-Free\uff09", "district": "\u4e50\u4ece", "number": "6", "longitude": "113.0950220000", "latitude": "22.9684440000", "id": "528315002044"}, {"name": "\u4eba\u529b\u8d44\u6e90\u548c\u793e\u4f1a\u4fdd\u969c\u5c40\uff08Lecong-Free\uff09", "district": "\u4e50\u4ece", "number": "6", "longitude": "113.2996630000", "latitude": "22.8116620000", "id": "528315002045"}, {"name": "\u4e50\u4ece\u5c0f\u5e03\u6c34\u5229\u6240\uff08Lecong-Free\uff09", "district": "\u4e50\u4ece", "number": "6", "longitude": "113.1070600000", "latitude": "22.9797070000", "id": "528315002046"}, {"name": "\u4e50\u4ece\u4f9b\u7535\u5c40\uff08Lecong-Free\uff09", "district": "\u4e50\u4ece", "number": "6", "longitude": "113.2163390000", "latitude": "22.9256540000", "id": "528315002047"}, {"name": "\u4e50\u4ece\u6587\u5316\u7ad9\uff08Lecong-Free\uff09", "district": "\u4e50\u4ece", "number": "6", "longitude": "113.0928130000", "latitude": "22.9616970000", "id": "528315002048"}, {"name": "\u4e50\u4ece\u5e7f\u64ad\u7535\u89c6\u7ad9(Gcable-FoShan)", "district": "\u4e50\u4ece", "number": "6", "longitude": "113.1014740000", "latitude": "22.9633200000", "id": "528315002049"}, {"name": "\u4e50\u4ece\u793e\u533a\u536b\u751f\u670d\u52a1\u4e2d\u5fc3\uff08Lecong-Free\uff09", "district": "\u4e50\u4ece", "number": "25", "longitude": "113.0949590000", "latitude": "22.9718130000", "id": "528315002050"}, {"name": "\u5317\u822a\u57fa\u5730\uff08Lecong-Free\uff09", "district": "\u4e50\u4ece", "number": "11", "longitude": "", "latitude": "", "id": "528315002051"}, {"name": "\u4e50\u4ece\u4f9b\u9500\u96c6\u56e2\u5927\u53a6\uff08Lecong-Free\uff09", "district": "\u4e50\u4ece", "number": "6", "longitude": "113.0881370000", "latitude": "22.9671790000", "id": "528315002052"}, {"name": "\u4e50\u7684\u767e\u8d27\uff08Lecong-Free\uff09", "district": "\u4e50\u4ece", "number": "6", "longitude": "113.0923690000", "latitude": "22.9637270000", "id": "528315002053"}, {"name": "\u4e50\u4ece\u5929\u4f51\u57ce\uff08Lecong-Free\uff09", "district": "\u4e50\u4ece", "number": "6", "longitude": "113.1135830000", "latitude": "22.9529120000", "id": "528315002054"}, {"name": "\u65b0\u65f6\u4ee3\u5546\u4e1a\u8857\uff08Lecong-Free\uff09", "district": "\u4e50\u4ece", "number": "6", "longitude": "113.1870300000", "latitude": "22.8485100000", "id": "528315002055"}, {"name": "\u4e50\u4ece\u94a2\u94c1\u4e16\u754c\uff08Lecong-Free\uff09", "district": "\u4e50\u4ece", "number": "6", "longitude": "113.1117530000", "latitude": "22.9323530000", "id": "528315002056"}, {"name": "\u5e7f\u9686\u5bb6\u5177\u57ce\uff08Lecong-Free\uff09", "district": "\u4e50\u4ece", "number": "6", "longitude": "113.0988370000", "latitude": "22.9400080000", "id": "528315002057"}, {"name": "\u5b8f\u6d77\uff08Lecong-Free\uff09", "district": "\u4e50\u4ece", "number": "6", "longitude": "113.1217950000", "latitude": "22.9221180000", "id": "528315002058"}, {"name": "\u65ed\u8f89\u5bb6\u5177\uff08Lecong-Free\uff09", "district": "\u4e50\u4ece", "number": "6", "longitude": "113.098013", "latitude": "22.95062", "id": "528315002059"}, {"name": "\u949c\u9686\u5bb6\u5177\u57ce\uff08Lecong-Free\uff09", "district": "\u4e50\u4ece", "number": "6", "longitude": "113.0958990000", "latitude": "22.9424870000", "id": "528315002060"}, {"name": "\u5353\u9686\u5bb6\u5177\u57ce\uff08Lecong-Free\uff09", "district": "\u4e50\u4ece", "number": "6", "longitude": "113.0991760000", "latitude": "22.9389260000", "id": "528315002061"}, {"name": "\u5ddd\u9875\u5bb6\u5177\u57ce\uff08Lecong-Free\uff09", "district": "\u4e50\u4ece", "number": "6", "longitude": "113.0985050000", "latitude": "22.9305550000", "id": "528315002062"}, {"name": "\u7687\u671d\u5bb6\u79c1\u7687\u5bb6\u5e97\uff08Lecong-Free\uff09", "district": "\u4e50\u4ece", "number": "15", "longitude": "113.0979570000", "latitude": "22.9442680000", "id": "528315002063"}, {"name": "\u7687\u671d\u8d35\u65cf\u5e97\uff08Lecong-Free\uff09", "district": "\u4e50\u4ece", "number": "15", "longitude": "113.0986220000", "latitude": "22.9349740000", "id": "528315002064"}, {"name": "\u7687\u671d\u5bb6\u79c1\u6469\u767b\u5e97\uff08Lecong-Free\uff09", "district": "\u4e50\u4ece", "number": "15", "longitude": "113.0983700000", "latitude": "22.9454160000", "id": "528315002065"}, {"name": "\u7687\u671d\u5bb6\u79c1\u5b9e\u60e0\u5e97\uff08Lecong-Free\uff09", "district": "\u4e50\u4ece", "number": "15", "longitude": "113.0983700000", "latitude": "22.9454160000", "id": "528315002066"}, {"name": "\u56e2\u4ebf\u5bb6\u5177\u57ce\uff08Lecong-Free\uff09", "district": "\u4e50\u4ece", "number": "29", "longitude": "113.0966900000", "latitude": "22.9363470000", "id": "528315002067"}, {"name": "\u5a01\u9e3f\u5bb6\u5177\u57ce\uff08\u9762\u5411325\uff09\uff08Lecong-Free\uff09", "district": "\u4e50\u4ece", "number": "9", "longitude": "113.0963940000", "latitude": "22.9362670000", "id": "528315002068"}, {"name": "\u5a01\u9e3f\u5bb6\u5177\u57ce\uff08\u56e2\u4ebf\u540e\uff09\uff08Lecong-Free\uff09", "district": "\u4e50\u4ece", "number": "6", "longitude": "113.0963940000", "latitude": "22.9362670000", "id": "528315002069"}, {"name": "\u5a01\u9e3f\u5bb6\u5177\u57ce\uff08\u9a8f\u5bcc\u53f3\u4fa7\uff09\uff08Lecong-Free\uff09", "district": "\u4e50\u4ece", "number": "6", "longitude": "113.0963940000", "latitude": "22.9362670000", "id": "528315002070"}, {"name": "\u4e1c\u6052\u5bb6\u5177\u57ce\uff08\u4e1c\u6751\u5546\u4e1a\u5927\u9053\u3001\u7687\u671d\u7687\u5bb6\u5e97\u540e\u5ea7\uff09\uff08Lecong-Free\uff09", "district": "\u4e50\u4ece", "number": "15", "longitude": "113.1668150000", "latitude": "22.7863710000", "id": "528315002071"}, {"name": "\u4e1c\u6052\u5bb6\u5177\u57ce\uff08\u9762\u5411325\u56fd\u9053\uff09\uff08Lecong-Free\uff09", "district": "\u4e50\u4ece", "number": "9", "longitude": "113.0983520000", "latitude": "22.9404990000", "id": "528315002072"}, {"name": "\u4e1c\u6052\u5bb6\u5177\u57ce\uff08\u5e99\u540e\u8def\u5e97\uff09\uff08Lecong-Free\uff09", "district": "\u4e50\u4ece", "number": "6", "longitude": "113.0975050000", "latitude": "22.9410810000", "id": "528315002073"}, {"name": "\u51ef\u6708\u5bb6\u5177\u57ce\uff08Lecong-Free\uff09", "district": "\u4e50\u4ece", "number": "6", "longitude": "113.0970800000", "latitude": "22.9373040000", "id": "528315002074"}, {"name": "\u9f99\u5a01\u5bb6\u5177\u57ce\uff08Lecong-Free\uff09", "district": "\u4e50\u4ece", "number": "6", "longitude": "113.0965460000", "latitude": "22.9297480000", "id": "528315002075"}, {"name": "\u9a8f\u5bcc\u5bb6\u5177\u57ce\uff08Lecong-Free\uff09", "district": "\u4e50\u4ece", "number": "6", "longitude": "113.0969960000", "latitude": "22.9366550000", "id": "528315002076"}, {"name": "\u8054\u5bcc\u5bb6\u5177\u57ce\uff08Lecong-Free\uff09", "district": "\u4e50\u4ece", "number": "6", "longitude": "113.0974900000", "latitude": "22.9376200000", "id": "528315002077"}, {"name": "\u94f6\u5bcc\u5bb6\u5177\u57ce\uff08Lecong-Free\uff09", "district": "\u4e50\u4ece", "number": "6", "longitude": "113.0969860000", "latitude": "22.9382770000", "id": "528315002078"}, {"name": "\u91d1\u540d\u5bb6\u5177\u57ce\uff08Lecong-Free\uff09", "district": "\u4e50\u4ece", "number": "6", "longitude": "113.0943780000", "latitude": "22.9395330000", "id": "528315002079"}, {"name": "\u7ea2\u661f\u7f8e\u51ef\u9f99\uff08Lecong-Free\uff09", "district": "\u4e50\u4ece", "number": "29", "longitude": "113.0976100000", "latitude": "22.9275850000", "id": "528315002080"}, {"name": "\u6d6a\u767b\u7ea2\u6728\u57ce\uff08Lecong-Free\uff09", "district": "\u4e50\u4ece", "number": "6", "longitude": "113.0934490000", "latitude": "22.9216520000", "id": "528315002081"}, {"name": "\u5bb6\u535a\u7a7a\u95f4\uff08Lecong-Free\uff09", "district": "\u4e50\u4ece", "number": "3", "longitude": "113.0981110000", "latitude": "22.9492760000", "id": "528315002082"}, {"name": "\u7ca4\u9686\u5bb6\u5177\u57ce\uff08Lecong-Free\uff09", "district": "\u4e50\u4ece", "number": "6", "longitude": "113.0997980000", "latitude": "22.9396170000", "id": "528315002083"}, {"name": "\u4e50\u4ece\u56fd\u9645\u4f1a\u5c55\u4e2d\u5fc3\uff08Lecong-Free\uff09", "district": "\u4e50\u4ece", "number": "29", "longitude": "113.0926790000", "latitude": "22.9568140000", "id": "528315002084"}, {"name": "\u4e1c\u9e23\u5bb6\u5177\u57ce\uff08325\u9760\u7ea2\u661f\u90a3\u4fa7\u8def\uff09\uff08Lecong-Free\uff09", "district": "\u4e50\u4ece", "number": "15", "longitude": "113.0959710000", "latitude": "22.9269590000", "id": "528315002085"}, {"name": "\u4e1c\u9e23\u5bb6\u5177\u57ce\uff08\u85e4\u53d1\u52a0\u6cb9\u7ad9\u8fb9\uff09\uff08Lecong-Free\uff09", "district": "\u4e50\u4ece", "number": "6", "longitude": "113.0959710000", "latitude": "22.9269590000", "id": "528315002086"}, {"name": "\u5e7f\u4e1c\u7f57\u6d6e\u5bab\u56fd\u9645\u5bb6\u5177\u57ce\u6709\u9650\u516c\u53f8\uff08Lecong-Free\uff09", "district": "\u4e50\u4ece", "number": "29", "longitude": "113.096809", "latitude": "22.950412", "id": "528315002087"}, {"name": "\u5357\u534e\u5bb6\u5177\u57ce\uff08\u5de6\u5ea7\uff09\uff08Lecong-Free\uff09", "district": "\u4e50\u4ece", "number": "6", "longitude": "113.0949110000", "latitude": "22.9411450000", "id": "528315002088"}, {"name": "\u5357\u534e\u5bb6\u5177\u57ce\uff08\u53f3\u5ea7\uff09\uff08Lecong-Free\uff09", "district": "\u4e50\u4ece", "number": "6", "longitude": "113.0949110000", "latitude": "22.9411450000", "id": "528315002089"}, {"name": "\u4e1c\u822a\u5bb6\u5177\u57ce\uff08Lecong-Free\uff09", "district": "\u4e50\u4ece", "number": "6", "longitude": "13.0983600000", "latitude": "22.9377780000", "id": "528315002090"}, {"name": "\u987a\u8054\u53a8\u67dc\u706f\u9970\u57ce\uff08Lecong-Free\uff09", "district": "\u4e50\u4ece", "number": "6", "longitude": "113.0981300000", "latitude": "22.9607160000", "id": "528315002091"}, {"name": "\u987a\u8054\u5317\u533a\u5bb6\u5177\u57ce\uff08Lecong-Free\uff09", "district": "\u4e50\u4ece", "number": "6", "longitude": "113.0950410000", "latitude": "22.9569470000", "id": "528315002092"}, {"name": "\u987a\u8054\u5357\u533a\uff08\u5de6\uff09\uff08Lecong-Free\uff09", "district": "\u4e50\u4ece", "number": "15", "longitude": "113.0984030000", "latitude": "22.9455740000", "id": "528315002093"}, {"name": "\u987a\u8054\u5357\u533a\uff08\u53f3\uff09\uff08Lecong-Free\uff09", "district": "\u4e50\u4ece", "number": "15", "longitude": "113.0984030000", "latitude": "22.9455740000", "id": "528315002094"}, {"name": "\u4f5b\u5c71\u65b0\u57ce\u62db\u5546\u4e2d\u5fc3\u7ba1\u59d4\u4f1a\uff08Lecong-Free\uff09", "district": "\u4e50\u4ece", "number": "15", "longitude": "", "latitude": "", "id": "528315002095"}, {"name": "\u5927\u826f\u884c\u653f\u670d\u52a1\u4e2d\u5fc3\u670d\u52a1\u5927\u5385\uff08W-FoShan.SD\uff09", "district": "\u5927\u826f", "number": "3", "longitude": "113.2743760000", "latitude": "22.7837010000", "id": "528300002096"}, {"name": "\u533a\u5e02\u573a\u5b89\u5168\u76d1\u7ba1\u5c40\u5927\u826f\u5206\u5c40\u670d\u52a1\u5927\u5385\uff08W-FoShan.SD\uff09", "district": "\u5927\u826f", "number": "3", "longitude": "113.2691410000", "latitude": "22.8335220000", "id": "528300002097"}, {"name": "\u533a\u516c\u5b89\u5c40\u5927\u826f\u6d3e\u51fa\u6240\u670d\u52a1\u5927\u5385\uff08W-FoShan.SD\uff09", "district": "\u5927\u826f", "number": "4", "longitude": "113.2522520000", "latitude": "22.8421070000", "id": "528300002098"}, {"name": "\u987a\u5cf0\u516c\u56ed\uff08W-FoShan.SD\uff09", "district": "\u5927\u826f", "number": "28", "longitude": "113.2863570000", "latitude": "22.8108460000", "id": "528300002099"}, {"name": "\u5927\u826f\u533b\u9662\uff08W-FoShan.SD\uff09", "district": "\u5927\u826f", "number": "6", "longitude": "113.2661810000", "latitude": "22.8222640000", "id": "528300002100"}, {"name": "\u987a\u5fb7\u533a\u6c7d\u8f66\u5ba2\u8fd0\u7ad9\uff08W-FoShan.SD-5G\uff09", "district": "\u5927\u826f", "number": "18", "longitude": "113.2680900000", "latitude": "22.8333310000", "id": "528300002101"}, {"name": "\u5bb9\u6842\u884c\u653f\u670d\u52a1\u4e2d\u5fc3\u670d\u52a1\u5927\u5385\uff08\u533a\u516c\u5b89\u5c40\u5bb9\u6842\u6d3e\u51fa\u6240\u670d\u52a1\u5927\u5385\uff09\uff08W-FoShan.SD\uff09", "district": "\u5bb9\u6842", "number": "7", "longitude": "113.2829150000", "latitude": "22.7836170000", "id": "528305002102"}, {"name": "\u533a\u5e02\u573a\u5b89\u5168\u76d1\u7ba1\u5c40\u5bb9\u6842\u5206\u5c40\u670d\u52a1\u5927\u5385\uff08W-FoShan.SD\uff09", "district": "\u5bb9\u6842", "number": "3", "longitude": "113.2788390000", "latitude": "22.7833840000", "id": "528305002103"}, {"name": "\u6587\u5854\u516c\u56ed\uff08W-FoShan.SD\uff09", "district": "\u5bb9\u6842", "number": "11", "longitude": "113.2793190000", "latitude": "22.7653070000", "id": "528305002104"}, {"name": "\u65b0\u6842\u6d32\u533b\u9662\uff08W-FoShan.SD\uff09", "district": "\u5bb9\u6842", "number": "5", "longitude": "113.2686010000", "latitude": "22.7699550000", "id": "528305002105"}, {"name": "\u65b0\u5bb9\u5947\u533b\u9662\uff08W-FoShan.SD\uff09", "district": "\u5bb9\u6842", "number": "5", "longitude": "113.2757950000", "latitude": "22.7792690000", "id": "528305002106"}, {"name": "\u5bb9\u6842\u5ba2\u8fd0\u603b\u7ad9(9C.W-FoShan.SD)", "district": "\u5bb9\u6842", "number": "5", "longitude": "113.2451900000", "latitude": "22.7802600000", "id": "528305002107"}, {"name": "\u5bb9\u6842\u4f53\u80b2\u4e2d\u5fc3\uff08W-FoShan.SD\uff09", "district": "\u5bb9\u6842", "number": "20", "longitude": "113.2901730000", "latitude": "22.7755290000", "id": "528305002108"}, {"name": "\u5bb9\u6842\u56fe\u4e66\u9986\uff08W-FoShan.SD\uff09", "district": "\u5bb9\u6842", "number": "8", "longitude": "113.2660390000", "latitude": "22.7675730000", "id": "528305002109"}, {"name": "\u5bb9\u6842\u5343\u79a7\u5e7f\u573a\uff08W-FoShan.SD\uff09", "district": "\u5bb9\u6842", "number": "4", "longitude": "113.2808240000", "latitude": "22.7730290000", "id": "528305002110"}, {"name": "\u4f26\u6559\u8857\u9053\u884c\u653f\u670d\u52a1\u4e2d\u5fc3\u670d\u52a1\u5927\u5385\uff08W-FoShan.SD\uff09", "district": "\u4f26\u6559", "number": "8", "longitude": "113.2291900000", "latitude": "22.8735440000", "id": "528308002111"}, {"name": "\u4f26\u6559\u6587\u5316\u5e7f\u573a\uff08W-FoShan.SD\uff09", "district": "\u4f26\u6559", "number": "6", "longitude": "113.2274500000", "latitude": "22.8727200000", "id": "528308002112"}, {"name": "\u4f26\u6559\u793e\u533a\u53d1\u5c55\u521b\u65b0\u4e2d\u5fc3\uff08W-FoShan.SD\uff09", "district": "\u4f26\u6559", "number": "12", "longitude": "113.2167660000", "latitude": "22.8685660000", "id": "528308002113"}, {"name": "\u4f26\u6559\u6587\u5316\u5927\u697c\uff08W-FoShan.SD\uff09", "district": "\u4f26\u6559", "number": "8", "longitude": "113.2294110000", "latitude": "22.8724530000", "id": "528308002114"}, {"name": "\u4f26\u6559\u56fe\u4e66\u9986\uff08W-FoShan.SD\uff09", "district": "\u4f26\u6559", "number": "12", "longitude": "113.2165660000", "latitude": "22.8688990000", "id": "528308002115"}, {"name": "\u4f26\u6559\u533b\u9662\uff08W-FoShan.SD\uff09", "district": "\u4f26\u6559", "number": "2", "longitude": "113.2192630000", "latitude": "22.8747010000", "id": "528308002116"}, {"name": "\u4f26\u6559\u4ea4\u901a\u4e2d\u5fc3\uff08W-FoShan.SD\uff09", "district": "\u4f26\u6559", "number": "4", "longitude": "113.2206420000", "latitude": "22.8850670000", "id": "528308002117"}, {"name": "\u4f26\u6559\u8857\u9053\u529e\u673a\u5173\u5927\u697c\uff08W-FoShan.SD\uff09", "district": "\u4f26\u6559", "number": "46", "longitude": "113.2274910000", "latitude": "22.8735690000", "id": "528308002118"}, {"name": "\u4f26\u6559\u7ecf\u79d1\u5c40\uff08W-FoShan.SD\uff09", "district": "\u4f26\u6559", "number": "4", "longitude": "113.223577", "latitude": "22.876499", "id": "528308002119"}, {"name": "\u5e02\u76d1\u5c40\u4f26\u6559\u5206\u5c40\uff08W-FoShan.SD\uff09", "district": "\u4f26\u6559", "number": "6", "longitude": "113.229342", "latitude": "22.873486", "id": "528308002120"}, {"name": "\u4f26\u6559\u4eba\u793e\u5c40\u3001\u7ed3\u7b97\u4e2d\u5fc3\uff08W-FoShan.SD\uff09", "district": "\u4f26\u6559", "number": "6", "longitude": "113.2255970000", "latitude": "22.8771820000", "id": "528308002121"}, {"name": "\u4f26\u6559\u7efc\u6cbb\u7ef4\u7a33\u4e2d\u5fc3\uff08W-FoShan.SD\uff09", "district": "\u4f26\u6559", "number": "3", "longitude": "113.2196760000", "latitude": "22.8757920000", "id": "528308002122"}, {"name": "\u73af\u7ba1\u5c40\u4f26\u6559\u5206\u5c40\uff08W-FoShan.SD\uff09", "district": "\u4f26\u6559", "number": "8", "longitude": "113.236098", "latitude": "22.878439", "id": "528308002123"}, {"name": "\u52d2\u6d41\u8857\u9053\u884c\u653f\u670d\u52a1\u4e2d\u5fc3\u670d\u52a1\u5927\u5385\uff08W-FoShan.SD\uff09", "district": "\u52d2\u6d41", "number": "7", "longitude": "113.1334290000", "latitude": "22.8678750000", "id": "528322002124"}, {"name": "\u533a\u5e02\u573a\u5b89\u5168\u76d1\u7ba1\u5c40\u52d2\u6d41\u5206\u5c40\u670d\u52a1\u5927\u5385\uff08W-FoShan.SD\uff09", "district": "\u52d2\u6d41", "number": "1", "longitude": "113.1340830000", "latitude": "22.8612400000", "id": "528322002125"}, {"name": "\u52d2\u6d41\u8857\u9053\u529e\u5e02\u6c11\u5e7f\u573a\uff08W-FoShan.SD\uff09", "district": "\u52d2\u6d41", "number": "10", "longitude": "113.135372", "latitude": "22.863838", "id": "528322002127"}, {"name": "\u52d2\u6d41\u533b\u9662\uff08W-FoShan.SD\uff09", "district": "\u52d2\u6d41", "number": "6", "longitude": "113.1416920000", "latitude": "22.8653190000", "id": "528322002128"}, {"name": "\u52d2\u6d41\u4ea4\u901a\u4e2d\u5fc3\uff08W-FoShan.SD\uff09", "district": "\u52d2\u6d41", "number": "3", "longitude": "113.1375280000", "latitude": "22.8616080000", "id": "528322002129"}, {"name": "\u987a\u5fb7\u52d2\u6d41\u73af\u5883\u8fd0\u8f93\u548c\u57ce\u5e02\u7ba1\u7406\u5c40\uff08W-FoShan.SD\uff09", "district": "\u52d2\u6d41", "number": "1", "longitude": "113.1298830000", "latitude": "22.8660520000", "id": "528322002130"}, {"name": "\u52d2\u6c34\u4eba\u5bb6\uff08W-FoShan.SD\uff09", "district": "\u52d2\u6d41", "number": "4", "longitude": "113.1359890000", "latitude": "22.8689490000", "id": "528322002131"}, {"name": "\u52d2\u6d41\u6587\u5316\u7ad9\uff08W-FoShan.SD\uff09", "district": "\u52d2\u6d41", "number": "2", "longitude": "113.1281980000", "latitude": "22.8657610000", "id": "528322002132"}, {"name": "\u9648\u6751\u9547\u884c\u653f\u670d\u52a1\u4e2d\u5fc3\u670d\u52a1\u5927\u5385\uff08W-FoShan.SD\uff09", "district": "\u9648\u6751", "number": "20", "longitude": "113.2493840000", "latitude": "22.9494680000", "id": "528313002133"}, {"name": "\u533a\u5e02\u573a\u5b89\u5168\u76d1\u7ba1\u5c40\u9648\u6751\u5206\u5c40\u670d\u52a1\u5927\u5385\uff08W-FoShan.SD\uff09", "district": "\u9648\u6751", "number": "7", "longitude": "113.2442970000", "latitude": "22.9669380000", "id": "528313002134"}, {"name": "\u533a\u516c\u5b89\u5c40\u9648\u6751\u9547\u6d3e\u51fa\u6240\u670d\u52a1\u5927\u5385\uff08W-FoShan.SD\uff09", "district": "\u9648\u6751", "number": "4", "longitude": "113.2389520000", "latitude": "22.9655410000", "id": "528313002135"}, {"name": "\u9648\u6751\u9547\u6587\u5316\u4e2d\u5fc3\uff08W-FoShan.SD\uff09", "district": "\u9648\u6751", "number": "3", "longitude": "113.2470500000", "latitude": "22.9649580000", "id": "528313002136"}, {"name": "\u9648\u6751\u533b\u9662\uff08W-FoShan.SD\uff09", "district": "\u9648\u6751", "number": "5", "longitude": "113.2505030000", "latitude": "22.9614980000", "id": "528313002137"}, {"name": "\u9648\u6751\u5ba2\u8fd0\u7ad9\uff08W-FoShan.SD\uff09", "district": "\u9648\u6751", "number": "3", "longitude": "113.2534800000", "latitude": "22.9568640000", "id": "528313002138"}, {"name": "\u9648\u6751\u9547\u653f\u5e9c\uff08W-FoShan.SD\uff09", "district": "\u9648\u6751", "number": "12", "longitude": "113.2414790000", "latitude": "22.9605330000", "id": "528313002139"}, {"name": "\u9648\u6751\u9547\u4eba\u529b\u8d44\u6e90\u548c\u793e\u4f1a\u4fdd\u969c\u5c40\uff08W-FoShan.SD\uff09", "district": "\u9648\u6751", "number": "3", "longitude": "113.2454170000", "latitude": "22.9621470000", "id": "528313002140"}, {"name": "\u9648\u6751\u9547\u7efc\u6cbb\u4fe1\u8bbf\u7ef4\u7a33\u529e\uff08W-FoShan.SD\uff09", "district": "\u9648\u6751", "number": "3", "longitude": "113.2451180000", "latitude": "22.9617470000", "id": "528313002141"}, {"name": "\u9648\u6751\u9547\u793e\u533a\u536b\u751f\u670d\u52a1\u4e2d\u5fc3\uff08W-FoShan.SD\uff09", "district": "\u9648\u6751", "number": "5", "longitude": "113.2363960000", "latitude": "22.9664310000", "id": "528313002142"}, {"name": "\u82b1\u9999\u5bb6\u56ed\uff08W-FoShan.SD\uff09", "district": "\u9648\u6751", "number": "5", "longitude": "113.2358170000", "latitude": "22.9666390000", "id": "528313002143"}, {"name": "\u9648\u6751\u9547\u6c99\u6d32\u516c\u56ed\uff08W-FoShan.SD\uff09", "district": "\u9648\u6751", "number": "5", "longitude": "113.2387120000", "latitude": "22.9668630000", "id": "528313002144"}, {"name": "\u5317\u6ed8\u9547\u884c\u653f\u670d\u52a1\u4e2d\u5fc3\u670d\u52a1\u5927\u5385\uff08W-FoShan.SD\uff09", "district": "\u5317\u6ed8", "number": "4", "longitude": "113.2241970000", "latitude": "22.9405900000", "id": "528312002145"}, {"name": "\u533a\u516c\u5b89\u5c40\u5317\u6ed8\u9547\u6d3e\u51fa\u6240\u670d\u52a1\u5927\u5385\uff08W-FoShan.SD\uff09", "district": "\u5317\u6ed8", "number": "2", "longitude": "113.2155540000", "latitude": "22.9246640000", "id": "528312002146"}, {"name": "\u5317\u6ed8\u516c\u56ed\uff08W-FoShan.SD\uff09", "district": "\u5317\u6ed8", "number": "16", "longitude": "113.2185440000", "latitude": "22.9370790000", "id": "528312002147"}, {"name": "\u5317\u6ed8\u533b\u9662\uff08W-FoShan.SD\uff09", "district": "\u5317\u6ed8", "number": "6", "longitude": "113.2212440000", "latitude": "22.9347410000", "id": "528312002148"}, {"name": "\u9f99\u6c5f\u9547\u884c\u653f\u670d\u52a1\u4e2d\u5fc3\u670d\u52a1\u5927\u5385\uff08W-FoShan.SD.LJ\uff09", "district": "\u9f99\u6c5f", "number": "7", "longitude": "113.0434610000", "latitude": "22.8549040000", "id": "528000002149"}, {"name": "\u533a\u5e02\u573a\u5b89\u5168\u76d1\u7ba1\u5c40\u9f99\u6c5f\u5206\u5c40\u670d\u52a1\u5927\u5385\uff08W-FoShan.SD.LJ\uff09", "district": "\u9f99\u6c5f", "number": "1", "longitude": "113.0849210000", "latitude": "22.8736690000", "id": "528000002150"}, {"name": "\u533a\u516c\u5b89\u5c40\u9f99\u6c5f\u6d3e\u51fa\u6240\u670d\u52a1\u5927\u5385\uff08W-FoShan.SD.LJ\uff09", "district": "\u9f99\u6c5f", "number": "32", "longitude": "113.0768190000", "latitude": "22.8747850000", "id": "528000002151"}, {"name": "\u9f99\u6c5f\u6587\u5316\u5e7f\u573a\uff08W-FoShan.SD.LJ\uff09", "district": "\u9f99\u6c5f", "number": "4", "longitude": "113.0821210000", "latitude": "22.8749930000", "id": "528000002152"}, {"name": "\u9f99\u6c5f\u533b\u9662\uff08W-FoShan.SD.LJ\uff09", "district": "\u9f99\u6c5f", "number": "5", "longitude": "113.0843530000", "latitude": "22.8672010000", "id": "528000002153"}, {"name": "\u9f99\u6c5f\u4ea4\u901a\u4e2d\u5fc3\uff08W-FoShan.SD.LJ\uff09", "district": "\u9f99\u6c5f", "number": "23", "longitude": "113.0898010000", "latitude": "22.8675260000", "id": "528000002154"}, {"name": "\u7d2b\u4e91\u9601\uff08W-FoShan.SD.LJ\uff09", "district": "\u9f99\u6c5f", "number": "191", "longitude": "113.0790900000", "latitude": "22.8923980000", "id": "528000002156"}, {"name": "\u9f99\u57ce\u56fd\u9645\uff08W-FoShan.SD.LJ\uff09", "district": "\u9f99\u6c5f", "number": "191", "longitude": "113.0647500000", "latitude": "22.8825180000", "id": "528000002157"}, {"name": "\u9f99\u6c5f\u9f99\u817e\u9152\u5e97\uff08W-FoShan.SD.LJ\uff09", "district": "\u9f99\u6c5f", "number": "191", "longitude": "113.0620360000", "latitude": "22.8863550000", "id": "528000002158"}, {"name": "\u9f99\u5c71\u91d1\u7d2b\u516c\u56ed\u9644\u8fd1\u4eba\u624d\u5e02\u573a\uff08W-FoShan.SD.LJ\uff09", "district": "\u9f99\u6c5f", "number": "191", "longitude": "113.055186", "latitude": "22.861206", "id": "528000002159"}, {"name": "\u987a\u5fb7\u5bb6\u5177\u534f\u4f1a\uff08W-FoShan.SD.LJ\uff09", "district": "\u9f99\u6c5f", "number": "191", "longitude": "113.0615550000", "latitude": "22.8853310000", "id": "528000002160"}, {"name": "\u9f99\u6c5f\u5546\u52a1\u3001\u9752\u5e74\u4f01\u4e1a\u534f\u4f1a\u3001\u9f99\u6c5f\u6148\u5584\u4f1a\uff08W-FoShan.SD.LJ\uff09", "district": "\u9f99\u6c5f", "number": "191", "longitude": "113.0869970000", "latitude": "22.8904750000", "id": "528000002161"}, {"name": "\u592a\u5b50\u5e7f\u573a\u6717\u5ef7\u9152\u5e97\uff08W-FoShan.SD.LJ\uff09", "district": "\u9f99\u6c5f", "number": "191", "longitude": "113.0760810000", "latitude": "22.8790720000", "id": "528000002162"}, {"name": "\u541b\u4e34\u98df\u5e9c\u5927\u5385\uff08W-FoShan.SD.LJ\uff09", "district": "\u9f99\u6c5f", "number": "191", "longitude": "113.0555060000", "latitude": "22.8689240000", "id": "528000002163"}, {"name": "\u9f99\u6c5f\u58f9\u53f7\u5bb6\u5c45\u521b\u610f\u56ed\uff08W-FoShan.SD.LJ\uff09", "district": "\u9f99\u6c5f", "number": "191", "longitude": "113.083014", "latitude": "22.891699", "id": "528000002164"}, {"name": "\u9f99\u6c5f\u6392\u6c99\u793e\u533a\u5c45\u59d4\u4f1a\u884c\u653f\u670d\u52a1\u4e2d\u5fc3\uff08W-FoShan.SD.LJ\uff09", "district": "\u9f99\u6c5f", "number": "191", "longitude": "113.0493350000", "latitude": "22.8530640000", "id": "528000002165"}, {"name": "\u9f99\u6c5f\u9648\u6d8c\u793e\u533a\u5c45\u59d4\u4f1a\u884c\u653f\u670d\u52a1\u4e2d\u5fc3\uff08W-FoShan.SD.LJ\uff09", "district": "\u9f99\u6c5f", "number": "191", "longitude": "113.0434630000", "latitude": "22.8548460000", "id": "528000002166"}, {"name": "\u9f99\u6c5f\u82cf\u6eaa\u793e\u533a\u5c45\u59d4\u4f1a\u884c\u653f\u670d\u52a1\u4e2d\u5fc3\uff08W-FoShan.SD.LJ\uff09", "district": "\u9f99\u6c5f", "number": "191", "longitude": "113.0456930000", "latitude": "22.8618730000", "id": "528000002167"}, {"name": "\u9f99\u6c5f\u4e16\u57e0\u793e\u533a\u5c45\u59d4\u4f1a\u884c\u653f\u670d\u52a1\u4e2d\u5fc3\uff08W-FoShan.SD.LJ\uff09", "district": "\u9f99\u6c5f", "number": "191", "longitude": "113.0772150000", "latitude": "22.8842910000", "id": "528000002168"}, {"name": "\u9f99\u6c5f\u897f\u6eaa\u793e\u533a\u5c45\u59d4\u4f1a\u884c\u653f\u670d\u52a1\u4e2d\u5fc3\uff08W-FoShan.SD.LJ\uff09", "district": "\u9f99\u6c5f", "number": "191", "longitude": "113.0865600000", "latitude": "22.8823850000", "id": "528000002169"}, {"name": "\u9f99\u6c5f\u4e1c\u6d8c\u793e\u533a\u5c45\u59d4\u4f1a\u884c\u653f\u670d\u52a1\u4e2d\u5fc3\uff08W-FoShan.SD.LJ\uff09", "district": "\u9f99\u6c5f", "number": "191", "longitude": "113.0778860000", "latitude": "22.8986160000", "id": "528000002170"}, {"name": "\u9f99\u6c5f\u5766\u897f\u793e\u533a\u5c45\u59d4\u4f1a\u884c\u653f\u670d\u52a1\u4e2d\u5fc3\uff08W-FoShan.SD.LJ\uff09", "district": "\u9f99\u6c5f", "number": "191", "longitude": "113.0810180000", "latitude": "22.8938380000", "id": "528000002171"}, {"name": "\u9f99\u6c5f\u9f99\u6c5f\u793e\u533a\u5c45\u59d4\u4f1a\u884c\u653f\u670d\u52a1\u4e2d\u5fc3\uff08W-FoShan.SD.LJ\uff09", "district": "\u9f99\u6c5f", "number": "191", "longitude": "113.0819910000", "latitude": "22.8896100000", "id": "528000002172"}, {"name": "\u9f99\u6c5f\u9f99\u5c71\u793e\u533a\u5c45\u59d4\u4f1a\u884c\u653f\u670d\u52a1\u4e2d\u5fc3\uff08W-FoShan.SD.LJ\uff09", "district": "\u9f99\u6c5f", "number": "191", "longitude": "113.0470430000", "latitude": "22.8544960000", "id": "528000002173"}, {"name": "\u9f99\u6c5f\u65b0\u534e\u897f\u6751\u6c11\u59d4\u5458\u4f1a\u884c\u653f\u670d\u52a1\u4e2d\u5fc3\uff08W-FoShan.SD.LJ\uff09", "district": "\u9f99\u6c5f", "number": "191", "longitude": "113.0502370000", "latitude": "22.8716550000", "id": "528000002174"}, {"name": "\u9f99\u6c5f\u65fa\u5c97\u6751\u6c11\u59d4\u5458\u4f1a\u884c\u653f\u670d\u52a1\u4e2d\u5fc3\uff08W-FoShan.SD.LJ\uff09", "district": "\u9f99\u6c5f", "number": "191", "longitude": "113.0568680000", "latitude": "22.8558450000", "id": "528000002175"}, {"name": "\u9f99\u6c5f\u4ed9\u5858\u6751\u6c11\u59d4\u5458\u4f1a\u884c\u653f\u670d\u52a1\u4e2d\u5fc3\uff08W-FoShan.SD.LJ\uff09", "district": "\u9f99\u6c5f", "number": "191", "longitude": "113.0506700000", "latitude": "22.8847150000", "id": "528000002176"}, {"name": "\u9f99\u6c5f\u6c99\u5bcc\u6751\u6c11\u59d4\u5458\u4f1a\u884c\u653f\u670d\u52a1\u4e2d\u5fc3\uff08W-FoShan.SD.LJ\uff09", "district": "\u9f99\u6c5f", "number": "191", "longitude": "113.0763900000", "latitude": "22.8657020000", "id": "528000002177"}, {"name": "\u9f99\u6c5f\u96c6\u5317\u6751\u6c11\u59d4\u5458\u4f1a\u884c\u653f\u670d\u52a1\u4e2d\u5fc3\uff08W-FoShan.SD.LJ\uff09", "district": "\u9f99\u6c5f", "number": "191", "longitude": "113.1029790000", "latitude": "22.8649450000", "id": "528000002178"}, {"name": "\u9f99\u6c5f\u4e1c\u6d77\u6751\u6c11\u59d4\u5458\u4f1a\u884c\u653f\u670d\u52a1\u4e2d\u5fc3\uff08W-FoShan.SD.LJ\uff09", "district": "\u9f99\u6c5f", "number": "191", "longitude": "113.0662150000", "latitude": "22.8341720000", "id": "528000002179"}, {"name": "\u9f99\u6c5f\u5b98\u7530\u6751\u6c11\u59d4\u5458\u4f1a\u884c\u653f\u670d\u52a1\u4e2d\u5fc3\uff08W-FoShan.SD.LJ\uff09", "district": "\u9f99\u6c5f", "number": "191", "longitude": "113.0760010000", "latitude": "22.8505500000", "id": "528000002180"}, {"name": "\u9f99\u6c5f\u9ea6\u6717\u6751\u6c11\u59d4\u5458\u4f1a\u884c\u653f\u670d\u52a1\u4e2d\u5fc3\uff08W-FoShan.SD.LJ\uff09", "district": "\u9f99\u6c5f", "number": "191", "longitude": "113.1060310000", "latitude": "22.8516410000", "id": "528000002181"}, {"name": "\u9f99\u6c5f\u897f\u5e86\u6751\u6c11\u59d4\u5458\u4f1a\u884c\u653f\u670d\u52a1\u4e2d\u5fc3\uff08W-FoShan.SD.LJ\uff09", "district": "\u9f99\u6c5f", "number": "191", "longitude": "113.0958870000", "latitude": "22.8569860000", "id": "528000002182"}, {"name": "\u9f99\u6c5f\u4e07\u5b89\u6751\u6c11\u59d4\u5458\u4f1a\u884c\u653f\u670d\u52a1\u4e2d\u5fc3\uff08W-FoShan.SD.LJ\uff09", "district": "\u9f99\u6c5f", "number": "191", "longitude": "113.1128900000", "latitude": "22.8566440000", "id": "528000002183"}, {"name": "\u9f99\u6c5f\u5357\u5751\u6751\u6c11\u59d4\u5458\u4f1a\u884c\u653f\u670d\u52a1\u4e2d\u5fc3\uff08W-FoShan.SD.LJ\uff09", "district": "\u9f99\u6c5f", "number": "191", "longitude": "113.0877070000", "latitude": "22.8311240000", "id": "528000002184"}, {"name": "\u9f99\u6c5f\u4e1c\u5934\u6751\u6c11\u59d4\u5458\u4f1a\u884c\u653f\u670d\u52a1\u4e2d\u5fc3\uff08W-FoShan.SD.LJ\uff09", "district": "\u9f99\u6c5f", "number": "191", "longitude": "113.0770310000", "latitude": "22.8349790000", "id": "528000002185"}, {"name": "\u9f99\u6c5f\u5de6\u6ee9\u6751\u6c11\u59d4\u5458\u4f1a\u884c\u653f\u670d\u52a1\u4e2d\u5fc3\uff08W-FoShan.SD.LJ\uff09", "district": "\u9f99\u6c5f", "number": "191", "longitude": "113.0840400000", "latitude": "22.8091130000", "id": "528000002186"}, {"name": "\u9f99\u6c5f\u6709\u7ebf\u7535\u89c6\u7ad9\u5e7f\u573a\uff08W-FoShan.SD.LJ\uff09", "district": "\u9f99\u6c5f", "number": "191", "longitude": "113.082203", "latitude": "22.874905", "id": "528000002187"}, {"name": "\u9f99\u6c5f\u5e02\u573a\u5b89\u5168\u76d1\u7ba1\u5c40\u529e\u8bc1\u5927\u5385\uff08W-FoShan.SD.LJ\uff09", "district": "\u9f99\u6c5f", "number": "191", "longitude": "113.0849210000", "latitude": "22.8736690000", "id": "528000002188"}, {"name": "\u9f99\u6c5f\u73af\u8fd0\u5c40\u529e\u8bc1\u5927\u5385\uff08W-FoShan.SD.LJ\uff09", "district": "\u9f99\u6c5f", "number": "191", "longitude": "113.0890520000", "latitude": "22.8671930000", "id": "528000002189"}, {"name": "\u9f99\u6c5f\u4e30\u7530\u6c7d\u8f66\u552e\u670d\u516c\u53f8\uff08W-FoShan.SD.LJ\uff09", "district": "\u9f99\u6c5f", "number": "191", "longitude": "113.0697440000", "latitude": "22.8789470000", "id": "528000002190"}, {"name": "\u4e9a\u6d32\u56fd\u5bb6\u5bb6\u5177\u6750\u6599\u4ea4\u6613\u4e2d\u5fc3\u79df\u552e\u4e2d\u5fc3\u5927\u5802\uff08W-FoShan.SD.LJ\uff09", "district": "\u9f99\u6c5f", "number": "191", "longitude": "113.0611360000", "latitude": "22.8929220000", "id": "528000002191"}, {"name": "\u9f99\u6c5f\u5c71\u5e84\u5927\u5385\uff08W-FoShan.SD.LJ\uff09", "district": "\u9f99\u6c5f", "number": "191", "longitude": "113.0615300000", "latitude": "22.8836670000", "id": "528000002192"}, {"name": "\u9f99\u6c5f\u533b\u9662\uff08W-FoShan.SD.LJ\uff09", "district": "\u9f99\u6c5f", "number": "191", "longitude": "113.0843530000", "latitude": "22.8672010000", "id": "528000002193"}, {"name": "\u9f99\u5c71\u6c7d\u8f66\u5ba2\u8fd0\u7ad9\uff08\u65b0\u4ea4\u901a\u4e2d\u5fc3\uff09\uff08W-FoShan.SD.LJ\uff09", "district": "\u9f99\u6c5f", "number": "191", "longitude": "113.0347830000", "latitude": "22.8574270000", "id": "528000002194"}, {"name": "\u9f99\u5c71\u5019\u673a\u697c\uff08W-FoShan.SD.LJ\uff09", "district": "\u9f99\u6c5f", "number": "191", "longitude": "113.0487830000", "latitude": "22.8552790000", "id": "528000002195"}, {"name": "\u76c8\u4fe1\u8857\u5e02\uff08W-FoShan.SD.LJ\uff09", "district": "\u9f99\u6c5f", "number": "191", "longitude": "113.0850760000", "latitude": "22.8786060000", "id": "528000002196"}, {"name": "\u9f99\u6c5f\u6d3e\u51fa\u6240\uff08W-FoShan.SD.LJ\uff09", "district": "\u9f99\u6c5f", "number": "191", "longitude": "113.0768190000", "latitude": "22.8747850000", "id": "528000002197"}, {"name": "\u9f99\u6c5f\u76c8\u4fe1\u5e7f\u573a\u53f3\u7ffc\u9996\u5c42\u3001\u7535\u5f71\u9662\uff08W-FoShan.SD.LJ\uff09", "district": "\u9f99\u6c5f", "number": "191", "longitude": "113.0830500000", "latitude": "22.8760420000", "id": "528000002198"}, {"name": "\u9f99\u6c5f\u76c8\u4fe1\u5e7f\u573a\u53f3\u7ffc4\u4e2a\u30013\u5c42\u9152\u697c\u5927\u5385\uff08W-FoShan.SD.LJ\uff09", "district": "\u9f99\u6c5f", "number": "191", "longitude": "113.0830500000", "latitude": "22.8760420000", "id": "528000002199"}, {"name": "\u8054\u661f\u56fd\u9645\u9996\u5c42\u5e7f\u573a\u8986\u76d6\uff08W-FoShan.SD.LJ\uff09", "district": "\u9f99\u6c5f", "number": "191", "longitude": "113.0867540000", "latitude": "22.8769740000", "id": "528000002200"}, {"name": "\u9f99\u6c5f\u524d\u8fdb\u6c47\u5c55\u4e2d\u5fc3\uff08W-FoShan.SD.LJ\uff09", "district": "\u9f99\u6c5f", "number": "191", "longitude": "113.0594000000", "latitude": "22.8817850000", "id": "528000002201"}, {"name": "\u7434\u57ce\u9152\u5e97\u5927\u5802\uff08W-FoShan.SD.LJ\uff09", "district": "\u9f99\u6c5f", "number": "191", "longitude": "", "latitude": "", "id": "528000002202"}, {"name": "\u9f99\u6c5f\u4eba\u4eba\u9152\u5e97\u5927\u5385\uff08W-FoShan.SD.LJ\uff09", "district": "\u9f99\u6c5f", "number": "191", "longitude": "113.0427350000", "latitude": "22.8643950000", "id": "528000002203"}, {"name": "\u9f99\u6c5f\u9547\u653f\u5e9c\u9996\u5c42\u5927\u5802\uff08W-FoShan.SD.LJ\uff09", "district": "\u9f99\u6c5f", "number": "191", "longitude": "113.0805960000", "latitude": "22.8742460000", "id": "528000002204"}, {"name": "\u9f99\u6c5f\u9547\u653f\u5e9c\uff08W-FoShan.SD.LJ\uff09", "district": "\u9f99\u6c5f", "number": "191", "longitude": "113.0805960000", "latitude": "22.8742440000", "id": "528000002205"}, {"name": "\u674f\u575b\u9547\u884c\u653f\u670d\u52a1\u4e2d\u5fc3\u670d\u52a1\u5927\u5385\uff08W-FoShan.SD\uff09", "district": "\u674f\u575b", "number": "6", "longitude": "113.1604440000", "latitude": "22.7956540000", "id": "528325002206"}, {"name": "\u533a\u5e02\u573a\u5b89\u5168\u76d1\u7ba1\u5c40\u674f\u575b\u5206\u5c40\u670d\u52a1\u5927\u5385\uff08W-FoShan.SD\uff09", "district": "\u674f\u575b", "number": "2", "longitude": "", "latitude": "", "id": "528325002207"}, {"name": "\u533a\u516c\u5b89\u5c40\u674f\u575b\u6d3e\u51fa\u6240\u670d\u52a1\u5927\u5385\uff08W-FoShan.SD\uff09", "district": "\u674f\u575b", "number": "2", "longitude": "113.1234030000", "latitude": "22.7947130000", "id": "528325002208"}, {"name": "\u674f\u575b\u9547\u9022\u7b80\u6751\uff08W-FoShan.SD\uff09", "district": "\u674f\u575b", "number": "16", "longitude": "113.1553760000", "latitude": "22.8202400000", "id": "528325002209"}, {"name": "\u987a\u5fb7\u533a\u7b2c\u4e00\u4eba\u6c11\u533b\u9662\u9644\u5c5e\u674f\u575b\u533b\u9662\uff08W-FoShan.SD\uff09", "district": "\u674f\u575b", "number": "14", "longitude": "113.1660740000", "latitude": "22.7945540000", "id": "528325002210"}, {"name": "\u674f\u575b\u4ea4\u901a\u4e2d\u5fc3\uff08W-FoShan.SD\uff09", "district": "\u674f\u575b", "number": "2", "longitude": "113.1621600000", "latitude": "22.7920720000", "id": "528325002211"}, {"name": "\u5747\u5b89\u9547\u884c\u653f\u670d\u52a1\u4e2d\u5fc3\u670d\u52a1\u5927\u5385\uff08W-FoShan.SD\uff09", "district": "\u5747\u5b89", "number": "3", "longitude": "113.1563890000", "latitude": "22.7240270000", "id": "528329002212"}, {"name": "\u533a\u5e02\u573a\u5b89\u5168\u76d1\u7ba1\u5c40\u5747\u5b89\u5206\u5c40\u670d\u52a1\u5927\u5385\uff08W-FoShan.SD\uff09", "district": "\u5747\u5b89", "number": "2", "longitude": "113.1560100000", "latitude": "22.7237270000", "id": "528329002213"}, {"name": "\u5747\u5b89\u9547\u6587\u5316\u5e7f\u573a\uff08W-FoShan.SD\uff09", "district": "\u5747\u5b89", "number": "6", "longitude": "113.1518800000", "latitude": "22.7194770000", "id": "528329002214"}, {"name": "\u5747\u5b89\u533b\u9662\uff08W-FoShan.SD\uff09", "district": "\u5747\u5b89", "number": "3", "longitude": "113.1604340000", "latitude": "22.7153600000", "id": "528329002215"}, {"name": "\u5747\u5b89\u4ea4\u901a\u4e2d\u5fc3\uff08W-FoShan.SD\uff09", "district": "\u5747\u5b89", "number": "2", "longitude": "113.1572060000", "latitude": "22.7205100000", "id": "528329002216"}]